[
  {
    "id": 1,
    "name": "Shopping Estação BH",
    "address": "Av. Cristiano Machado, 11833 - Vila Cloris, Belo Horizonte",
    "email": "www.shoppingestacaobh.com.br",
    "phone": "",
    "latitude": -19.821152,
    "longitude": -43.9475531,
    "created_at": "2020-02-01T21:14:23.943Z",
    "updated_at": "2020-02-01T21:14:23.943Z"
  },
  {
    "id": 2,
    "name": "Supermercado Verdemar Pampulha",
    "address": "Av. Santa Rosa, 846 - São Luiz, Belo Horizonte",
    "email": "",
    "phone": "31 2391-0010",
    "latitude": -19.8535141,
    "longitude": -43.9666964,
    "created_at": "2020-02-01T21:14:24.328Z",
    "updated_at": "2020-02-01T21:14:24.328Z"
  },
  {
    "id": 3,
    "name": "BEMAD",
    "address": "Av. Santa Rosa, 10 - Pampulha, Belo Horizonte",
    "email": "",
    "phone": "",
    "latitude": -19.8508066,
    "longitude": -43.9574674,
    "created_at": "2020-02-01T21:14:24.685Z",
    "updated_at": "2020-02-01T21:14:24.685Z"
  },
  {
    "id": 4,
    "name": "Batalhão de Operações Aéreas",
    "address": "R. Líder, 84 - Aeroporto, Belo Horizonte - MG",
    "email": "",
    "phone": "31 3494-8335",
    "latitude": -19.852878,
    "longitude": -43.9529606,
    "created_at": "2020-02-01T21:14:25.110Z",
    "updated_at": "2020-02-01T21:14:25.110Z"
  },
  {
    "id": 5,
    "name": "3° Batalhão de Bombeiros Militar",
    "address": "Av. Pres. Antônio Carlos, 4013 - São Francisco, Belo Horizonte",
    "email": "",
    "phone": "31 3490-5518",
    "latitude": -19.8742871,
    "longitude": -43.9542077,
    "created_at": "2020-02-01T21:14:25.447Z",
    "updated_at": "2020-02-01T21:14:25.447Z"
  },
  {
    "id": 6,
    "name": "Minascasa o Shopping do Lar",
    "address": "Av. Cristiano Machado, 3411 - Ipiranga, Belo Horizonte",
    "email": "shoppingminascasa.com.br",
    "phone": "31 3449-6000",
    "latitude": -19.8791083,
    "longitude": -43.9296869,
    "created_at": "2020-02-01T21:14:25.814Z",
    "updated_at": "2020-02-01T21:14:25.814Z"
  },
  {
    "id": 7,
    "name": "Minas Shopping",
    "address": "Av. Cristiano Machado, 4000 - União, Belo Horizonte",
    "email": "www.minasshopping.com.br",
    "phone": "31 3429-3500",
    "latitude": -19.8748141,
    "longitude": -43.9262789,
    "created_at": "2020-02-01T21:14:26.117Z",
    "updated_at": "2020-02-01T21:14:26.117Z"
  },
  {
    "id": 8,
    "name": "Verdemar Cidade Nova",
    "address": "Av. Cristiano Machado, 2130 - Cidade Nova, Belo Horizonte ",
    "email": "www.superverdemar.com.br",
    "phone": "31 4040-4770",
    "latitude": -19.8889005,
    "longitude": -43.9289612,
    "created_at": "2020-02-01T21:14:26.440Z",
    "updated_at": "2020-02-01T21:14:26.440Z"
  },
  {
    "id": 9,
    "name": "Shopping Del Rey",
    "address": "Av. Presidente Carlos Luz, 3001 - Pampulha, Belo Horizonte",
    "email": "www.shoppingdelrey.com.br",
    "phone": " 31 3479-2054",
    "latitude": -19.8907155,
    "longitude": -43.9678135,
    "created_at": "2020-02-01T21:14:26.728Z",
    "updated_at": "2020-02-01T21:14:26.728Z"
  },
  {
    "id": 10,
    "name": "34 BPM/PMMG",
    "address": "Av. Américo Vespúcio, 2391 - Caiçaras, Belo Horizonte",
    "email": "www.policiamilitar.mg.gov.br",
    "phone": "31 2123-1327",
    "latitude": -19.9014245,
    "longitude": -43.965416,
    "created_at": "2020-02-01T21:14:27.484Z",
    "updated_at": "2020-02-01T21:14:27.484Z"
  },
  {
    "id": 11,
    "name": "Pátio Savassi",
    "address": "Av. do Contorno, 6061 - São Pedro, Belo Horizonte",
    "email": "www.patiosavassi.com",
    "phone": "31 3263-8521",
    "latitude": -19.9412476,
    "longitude": -43.9339619,
    "created_at": "2020-02-01T21:14:27.761Z",
    "updated_at": "2020-02-01T21:14:27.761Z"
  },
  {
    "id": 12,
    "name": "Boulevard Shopping",
    "address": "Av. dos Andradas, 3000 - Santa Efigênia, Belo Horizonte",
    "email": "www.boulevardshopping.com.br",
    "phone": "31 2538-7400",
    "latitude": -19.9206819,
    "longitude": -43.9201173,
    "created_at": "2020-02-01T21:14:28.130Z",
    "updated_at": "2020-02-01T21:14:28.130Z"
  },
  {
    "id": 13,
    "name": "Shopping Cidade",
    "address": "Rua dos Tupis, 337 - Centro, Belo Horizonte ",
    "email": "www.shoppingcidade.com.br",
    "phone": "31 3279-1200",
    "latitude": -19.9217918,
    "longitude": -43.9401273,
    "created_at": "2020-02-01T21:14:28.501Z",
    "updated_at": "2020-02-01T21:14:28.501Z"
  },
  {
    "id": 14,
    "name": "Ponteio Lar Shopping",
    "address": "BR-356, 2500 - Santa Lúcia, Belo Horizonte - MG, 30320-901",
    "email": "ponteiolarshopping.com.br",
    "phone": "31 3503-2500",
    "latitude": -19.9638447,
    "longitude": -43.9406845,
    "created_at": "2020-02-01T21:14:29.033Z",
    "updated_at": "2020-02-01T21:14:29.033Z"
  },
  {
    "id": 15,
    "name": "ViaShopping Barreiro",
    "address": "Av. Afonso Vaz de Melo, 640 - Barreiro, Belo Horizonte - MG, 30640-070",
    "email": "viashoppingbarreiro.com.br",
    "phone": "31 3527-9380",
    "latitude": -19.9739706,
    "longitude": -44.0212563,
    "created_at": "2020-02-01T21:14:29.384Z",
    "updated_at": "2020-02-01T21:14:29.384Z"
  },
  {
    "id": 16,
    "name": "ItaúPower Shopping",
    "address": "Av. General David Sarnoff, 5160 - Cidade Industrial, Contagem - MG, 32210-110",
    "email": "www.itaupowershopping.com.br",
    "phone": "31 3329-3001",
    "latitude": -19.9608024,
    "longitude": -44.0192082,
    "created_at": "2020-02-01T21:14:29.667Z",
    "updated_at": "2020-02-01T21:14:29.667Z"
  },
  {
    "id": 17,
    "name": "Shopping Contagem",
    "address": "Av. Severino Ballesteros, 850 - Cabral, Contagem - MG, 32110-005",
    "email": "www.shoppingcontagem.com.br",
    "phone": "31 3956-9621",
    "latitude": -19.8805258,
    "longitude": -44.0382207,
    "created_at": "2020-02-01T21:14:30.201Z",
    "updated_at": "2020-02-01T21:14:30.201Z"
  },
  {
    "id": 18,
    "name": "Monte Carmo Shopping",
    "address": "Av. Juiz Marco Túlio Isaac, 1119 - Ingá Alto, Betim - MG, 32604-345",
    "email": "www.montecarmoshopping.com.br",
    "phone": "31 3117-1511",
    "latitude": -19.9582489,
    "longitude": -44.1907101,
    "created_at": "2020-02-01T21:14:30.509Z",
    "updated_at": "2020-02-01T21:14:30.509Z"
  },
  {
    "id": 19,
    "name": "Partage Shopping Betim",
    "address": "Rod. Fernão Dias, 601 - KM 492 - São João, Betim - MG, 32655-505",
    "email": "www.partageshoppingbetim.com.br",
    "phone": "31 3117-1063",
    "latitude": -19.962522,
    "longitude": -44.160472,
    "created_at": "2020-02-01T21:14:31.064Z",
    "updated_at": "2020-02-01T21:14:31.064Z"
  },
  {
    "id": 20,
    "name": "Servas",
    "address": "Av. Cristóvão Colombo, 683 - Funcionários, Belo Horizonte - MG, 30140-140",
    "email": "www.servas.org.br",
    "phone": "31 3349-2400",
    "latitude": -19.9347907,
    "longitude": -43.9381262,
    "created_at": "2020-02-01T21:14:31.409Z",
    "updated_at": "2020-02-01T21:14:31.409Z"
  },
  {
    "id": 21,
    "name": "Primeiro Batalhão de Bombeiros Militar",
    "address": "R. Piauí, 1815 - Funcionários, Belo Horizonte - MG, 30150-321",
    "email": "www.bombeiros.mg.gov.br",
    "phone": "31 3289-8000",
    "latitude": -19.9377634,
    "longitude": -43.9281474,
    "created_at": "2020-02-01T21:14:31.727Z",
    "updated_at": "2020-02-01T21:14:31.727Z"
  },
  {
    "id": 22,
    "name": "Segundo Batalhão de Bombeiros Militar de Minas Gerais",
    "address": "Av. João César de Oliveira, 3744 - Eldorado, Contagem - MG, 32340-000",
    "email": "www.bombeiros.mg.gov.br",
    "phone": "31 3359-6301",
    "latitude": -19.936399,
    "longitude": -44.0587315,
    "created_at": "2020-02-01T21:14:32.072Z",
    "updated_at": "2020-02-01T21:14:32.072Z"
  },
  {
    "id": 23,
    "name": "3° Batalhão de Bombeiros Militar",
    "address": "Av. Pres. Antônio Carlos, 4013 - São Francisco, Belo Horizonte - MG, 31255-143",
    "email": "www.mg.gov.br",
    "phone": "31 3490-5518",
    "latitude": -19.8742871,
    "longitude": -43.9542077,
    "created_at": "2020-02-01T21:14:32.438Z",
    "updated_at": "2020-02-01T21:14:32.438Z"
  },
  {
    "id": 24,
    "name": "Batalhão de Operações Aéreas (BOA) - Corpo de Bombeiros Militar de Minas Gerais",
    "address": "R. Líder, 84 - Aeroporto, Belo Horizonte - MG, 31270-480",
    "email": "bombeiros.mg.gov.br",
    "phone": "31 3494-8335",
    "latitude": -19.852878,
    "longitude": -43.9529606,
    "created_at": "2020-02-01T21:14:32.865Z",
    "updated_at": "2020-02-01T21:14:32.865Z"
  },
  {
    "id": 25,
    "name": "Comando de Policiamento Especializado CPE PMMG",
    "address": "Av. do Contorno, 777 - Centro, Belo Horizonte - MG, 30110-042",
    "email": "www.policiamilitar.mg.gov.br",
    "phone": "31 2123-1750",
    "latitude": -19.9142035,
    "longitude": -43.9356876,
    "created_at": "2020-02-01T21:14:33.217Z",
    "updated_at": "2020-02-01T21:14:33.217Z"
  },
  {
    "id": 26,
    "name": "PMMG 22º Batalhão",
    "address": "Av. Arthur Bernardes, 1337 - Santa Lúcia, Belo Horizonte - MG, 30360-112",
    "email": "www.policiamilitar.mg.gov.br",
    "phone": "31 2123-1800",
    "latitude": -19.953731,
    "longitude": -43.9469561,
    "created_at": "2020-02-01T21:14:33.671Z",
    "updated_at": "2020-02-01T21:14:33.671Z"
  },
  {
    "id": 27,
    "name": "Polícia Militar 41º Batalhão",
    "address": "Av. Afonso Vaz de Melo, 650 - Barreiro, Belo Horizonte - MG, 30640-070",
    "email": "www.policiamilitar.mg.gov.br",
    "phone": "31 3307-0878",
    "latitude": -19.9752516,
    "longitude": -44.023296,
    "created_at": "2020-02-01T21:14:34.133Z",
    "updated_at": "2020-02-01T21:14:34.133Z"
  },
  {
    "id": 28,
    "name": "Batalhão de Polícia de Trânsito da PMMG",
    "address": "Av. Amazonas, 6001-6227 - Centro, Belo Horizonte - MG, 30510",
    "email": "www.policiamilitar.mg.gov.br",
    "phone": "",
    "latitude": -19.932214,
    "longitude": -43.9887026,
    "created_at": "2020-02-01T21:14:34.740Z",
    "updated_at": "2020-02-01T21:14:34.740Z"
  },
  {
    "id": 29,
    "name": "Casa99",
    "address": "R. Gentios, 274 - Térreo - Coracao de Jesus, Belo Horizonte - MG, 30380-472",
    "email": "99app.com",
    "phone": "300 313 2421",
    "latitude": -19.9461578,
    "longitude": -43.9522596,
    "created_at": "2020-02-01T21:14:35.263Z",
    "updated_at": "2020-02-01T21:14:35.263Z"
  },
  {
    "id": 30,
    "name": "Cruz Vermelha Brasileira - Filial Minas Gerais",
    "address": "Alameda Ezequiel Dias, 427 - Santa Efigênia, Belo Horizonte - MG, 30130-110",
    "email": "",
    "phone": "31 3239-4200",
    "latitude": -19.9262357,
    "longitude": -43.9320728,
    "created_at": "2020-02-01T21:14:35.681Z",
    "updated_at": "2020-02-01T21:14:35.681Z"
  },
  {
    "id": 31,
    "name": "Paróquia São Sebastião",
    "address": "R. Úrsula Paulino, 1555 - Betânia, Belo Horizonte - MG, 30580-000",
    "email": "www.saosebastiaobetania.com.br",
    "phone": "31 3383-1996",
    "latitude": -19.960576,
    "longitude": -43.9897596,
    "created_at": "2020-02-01T21:14:36.085Z",
    "updated_at": "2020-02-01T21:14:36.085Z"
  },
  {
    "id": 32,
    "name": "Paróquia de São João Batista",
    "address": "R. Veríssimo, 222 - Salgado Filho, Belo Horizonte - MG, 30550-270",
    "email": "",
    "phone": "31 3374-3735",
    "latitude": -19.9446781,
    "longitude": -43.983376,
    "created_at": "2020-02-01T21:14:36.439Z",
    "updated_at": "2020-02-01T21:14:36.439Z"
  },
  {
    "id": 33,
    "name": "Capela Nossa Senhora de Fátima",
    "address": "R. Amanda, 660 - Betânia, Belo Horizonte - MG, 30580-500",
    "email": "www.saosebastiaobetania.com.br",
    "phone": "31 3383-1996",
    "latitude": -19.9557357,
    "longitude": -43.9921408,
    "created_at": "2020-02-01T21:14:36.771Z",
    "updated_at": "2020-02-01T21:14:36.771Z"
  },
  {
    "id": 34,
    "name": "Santuário São Paulo da Cruz",
    "address": "Praça Domingos Gatti, s/n - Barreiro, Belo Horizonte - MG, 30640-030",
    "email": "",
    "phone": "31 3384-1794",
    "latitude": -19.9769939,
    "longitude": -44.0145267,
    "created_at": "2020-02-01T21:14:37.161Z",
    "updated_at": "2020-02-01T21:14:37.161Z"
  },
  {
    "id": 35,
    "name": "Paróquia Nossa Senhora do Sagrado Coração",
    "address": "R. Manoel Gonçalves Rezende, 155 - Inconfidentes, Contagem - MG, 32260-360",
    "email": "www.paroquianssc.com",
    "phone": "31 3361-2098",
    "latitude": -19.9558093,
    "longitude": -44.0386766,
    "created_at": "2020-02-01T21:14:37.523Z",
    "updated_at": "2020-02-01T21:14:37.523Z"
  },
  {
    "id": 36,
    "name": "Paróquia São Gonçalo",
    "address": "R. Bueno Brandão, 40 - Centro, Contagem - MG, 32041-310",
    "email": "www.paroquiasaogoncalocontagem.com",
    "phone": "31 3398-1504",
    "latitude": -19.9135092,
    "longitude": -44.0841034,
    "created_at": "2020-02-01T21:14:37.902Z",
    "updated_at": "2020-02-01T21:14:37.902Z"
  },
  {
    "id": 37,
    "name": "Catedral Nossa Senhora da Boa Viagem",
    "address": "R. Sergipe, 175 - Funcionários, Belo Horizonte - MG, 30130-170",
    "email": "igrejaboaviagem.org.br",
    "phone": "31 3222-2361",
    "latitude": -19.9285241,
    "longitude": -43.9350723,
    "created_at": "2020-02-01T21:14:38.250Z",
    "updated_at": "2020-02-01T21:14:38.250Z"
  },
  {
    "id": 38,
    "name": "Verdemar Buritis",
    "address": "Av. Professor Mário Werneck, 1500 - Buritis, Belo Horizonte - MG, 30455-610",
    "email": "www.superverdemar.com.br",
    "phone": " 31 3313-4223",
    "latitude": -19.9696117,
    "longitude": -43.965058,
    "created_at": "2020-02-01T21:14:38.712Z",
    "updated_at": "2020-02-01T21:14:38.712Z"
  },
  {
    "id": 39,
    "name": "Verdemar Castelo",
    "address": "Av. Pres. Tancredo Neves, 2700 - Paquetá, Belo Horizonte - MG, 31330-472",
    "email": "www.superverdemar.com.br",
    "phone": "31 4040-4774",
    "latitude": -19.8857162,
    "longitude": -43.9932015,
    "created_at": "2020-02-01T21:14:39.090Z",
    "updated_at": "2020-02-01T21:14:39.090Z"
  },
  {
    "id": 40,
    "name": "Verdemar Cidade Nova",
    "address": "Av. Cristiano Machado, 2130 - Cidade Nova, Belo Horizonte - MG, 31170-800",
    "email": "www.superverdemar.com.br",
    "phone": "31 4040-4770",
    "latitude": -19.8889005,
    "longitude": -43.9289612,
    "created_at": "2020-02-01T21:14:39.441Z",
    "updated_at": "2020-02-01T21:14:39.441Z"
  },
  {
    "id": 41,
    "name": "Verdemar Jardim Canadá",
    "address": "R. Vancouver, 40 - Jardim Canada, Nova Lima - MG, 34000-000",
    "email": "www.superverdemar.com.br",
    "phone": "31 3541-6011",
    "latitude": -20.0634104,
    "longitude": -43.9793142,
    "created_at": "2020-02-01T21:14:39.782Z",
    "updated_at": "2020-02-01T21:14:39.782Z"
  },
  {
    "id": 42,
    "name": "Supermercado Verdemar Pampulha",
    "address": "Av. Santa Rosa, 846 - São Luiz, Belo Horizonte - MG, 31275-260",
    "email": "www.superverdemar.com.br",
    "phone": "31 2391-0010",
    "latitude": -19.8535141,
    "longitude": -43.9666964,
    "created_at": "2020-02-01T21:14:40.124Z",
    "updated_at": "2020-02-01T21:14:40.124Z"
  },
  {
    "id": 43,
    "name": "Verdemar Raja",
    "address": "Av. Raja Gabáglia, 3600 - Estoril, Belo Horizonte - MG, 30494-310",
    "email": "www.superverdemar.com.br",
    "phone": "31 3286-2997",
    "latitude": -19.9641464,
    "longitude": -43.9559276,
    "created_at": "2020-02-01T21:14:40.482Z",
    "updated_at": "2020-02-01T21:14:40.482Z"
  },
  {
    "id": 44,
    "name": "Verdemar São Pedro",
    "address": "R. Viçosa, 572 - São Pedro, Belo Horizonte - MG, 30330-160",
    "email": "www.superverdemar.com.br",
    "phone": "31 3296-7458",
    "latitude": -19.946068,
    "longitude": -43.939237,
    "created_at": "2020-02-01T21:14:40.870Z",
    "updated_at": "2020-02-01T21:14:40.870Z"
  },
  {
    "id": 45,
    "name": "Verdemar Savassi",
    "address": "R. Fernandes Tourinho, 471 - Funcionários, Belo Horizonte - MG, 30110-042",
    "email": "www.superverdemar.com.br",
    "phone": "31 2595-0909",
    "latitude": -19.9388922,
    "longitude": -43.9391328,
    "created_at": "2020-02-01T21:14:41.208Z",
    "updated_at": "2020-02-01T21:14:41.208Z"
  },
  {
    "id": 46,
    "name": "Supermercado Verdemar",
    "address": "R. do Ouro, 195 - Serra, Belo Horizonte - MG, 30220-000",
    "email": "www.superverdemar.com.br",
    "phone": "31 4040-4080",
    "latitude": -19.9334923,
    "longitude": -43.9232033,
    "created_at": "2020-02-01T21:14:41.531Z",
    "updated_at": "2020-02-01T21:14:41.531Z"
  },
  {
    "id": 47,
    "name": "Supermercado Verdemar",
    "address": "R. do Ouro, 195 - Serra, Belo Horizonte - MG, 30220-000",
    "email": "www.superverdemar.com.br",
    "phone": "31 4040-4080",
    "latitude": -19.9334923,
    "longitude": -43.9232033,
    "created_at": "2020-02-01T21:14:41.576Z",
    "updated_at": "2020-02-01T21:14:41.576Z"
  },
  {
    "id": 48,
    "name": "Verdemar Sion",
    "address": "Av. Nossa Sra. do Carmo, 1900 - São Pedro, Belo Horizonte - MG, 30310-000",
    "email": "www.superverdemar.com.br",
    "phone": "31 2105-0101",
    "latitude": -19.9541171,
    "longitude": -43.9399042,
    "created_at": "2020-02-01T21:14:41.921Z",
    "updated_at": "2020-02-01T21:14:41.921Z"
  }
]
